[    
    {
        "id": "1",
        "name": "Clift Hotel",
        "phoneNumber": "(415) 775-4700",
        "description": "A 6-minute walk from Union Square and 4 minutes from a Muni Metro station, this luxury hotel designed by Philippe Starck features an artsy furniture collection in the lobby, including work by Salvador Dali.",
        "address": {
            "streetNumber": "495",
            "streetName": "Geary St",
            "city": "San Francisco",
            "state": "CA",
            "country": "United States",
            "postalCode": "94102",
            "lat": 37.7867,
            "lon": -122.4112
        }
    },
    {
        "id": "2",
        "name": "W San Francisco",
        "phoneNumber": "(415) 777-5300",
        "description": "Less than a block from the Yerba Buena Center for the Arts, this trendy hotel is a 12-minute walk from Union Square.",
        "address": {
            "streetNumber": "181",
            "streetName": "3rd St",
            "city": "San Francisco",
            "state": "CA",
            "country": "United States",
            "postalCode": "94103",
            "lat": 37.7854,
            "lon": -122.4005
        }
    },
    {
        "id": "3",
        "name": "Hotel Zetta",
        "phoneNumber": "(415) 543-8555",
        "description": "A 3-minute walk from the Powell Street cable-car turnaround and BART rail station, this hip hotel 9 minutes from Union Square combines high-tech lodging with artsy touches.",
        "address": {
            "streetNumber": "55",
            "streetName": "5th St",
            "city": "San Francisco",
            "state": "CA",
            "country": "United States",
            "postalCode": "94103",
            "lat": 37.7834,
            "lon": -122.4071
        }
    },
    {
        "id": "4",
        "name": "Hotel Vitale",
        "phoneNumber": "(415) 278-3700",
        "description": "This waterfront hotel with Bay Bridge views is 3 blocks from the Financial District and a 4-minute walk from the Ferry Building.",
        "address": {
            "streetNumber": "8",
            "streetName": "Mission St",
            "city": "San Francisco",
            "state": "CA",
            "country": "United States",
            "postalCode": "94105",
            "lat": 37.7936,
            "lon": -122.3930
    }
    },
    {
        "id": "5",
        "name": "Phoenix Hotel",
        "phoneNumber": "(415) 776-1380",
        "description": "Located in the Tenderloin neighborhood, a 10-minute walk from a BART rail station, this retro motor lodge has hosted many rock musicians and other celebrities since the 1950s. Itâ€™s a 4-minute walk from the historic Great American Music Hall nightclub.",
        "address": {
            "streetNumber": "601",
            "streetName": "Eddy St",
            "city": "San Francisco",
            "state": "CA",
            "country": "United States",
            "postalCode": "94109",
            "lat": 37.7831,
            "lon": -122.4181
        }
    },
    {
        "id": "6",
        "name": "St. Regis San Francisco",
        "phoneNumber": "(415) 284-4000",
        "description": "St. Regis Museum Tower is a 42-story, 484 ft skyscraper in the South of Market district of San Francisco, California, adjacent to Yerba Buena Gardens, Moscone Center, PacBell Building and the San Francisco Museum of Modern Art.",
        "address": {
            "streetNumber": "125",
            "streetName": "3rd St",
            "city": "San Francisco",
            "state": "CA",
            "country": "United States",
            "postalCode": "94109",
            "lat": 37.7863,
            "lon": -122.4015
        }
    },    
    {
       "id": "7",
       "name": "St. Regis San Francisco",
       "phoneNumber": "(415) 284-407",
       "description": "St. Regis Museum Tower is a 42-story, 484 ft skyscraper in the South of Market district of San Francisco, California, adjacent to Yerba Buena Gardens, Moscone Center, PacBell Building and the San Francisco Museum of Modern Art.",
       "address": {
           "streetNumber": "125",
           "streetName": "3rd St",
           "city": "San Francisco",
           "state": "CA",
           "country": "United States",
           "postalCode": "94109",
           "lat": 37.8255,
           "lon": -122.3540
       }
    },    
    {
       "id": "8",
       "name": "St. Regis San Francisco",
       "phoneNumber": "(415) 284-408",
       "description": "St. Regis Museum Tower is a 42-story, 484 ft skyscraper in the South of Market district of San Francisco, California, adjacent to Yerba Buena Gardens, Moscone Center, PacBell Building and the San Francisco Museum of Modern Art.",
       "address": {
           "streetNumber": "125",
           "streetName": "3rd St",
           "city": "San Francisco",
           "state": "CA",
           "country": "United States",
           "postalCode": "94109",
           "lat": 37.8315,
           "lon": -122.3460
       }
    },    
    {
       "id": "9",
       "name": "St. Regis San Francisco",
       "phoneNumber": "(415) 284-409",
       "description": "St. Regis Museum Tower is a 42-story, 484 ft skyscraper in the South of Market district of San Francisco, California, adjacent to Yerba Buena Gardens, Moscone Center, PacBell Building and the San Francisco Museum of Modern Art.",
       "address": {
           "streetNumber": "125",
           "streetName": "3rd St",
           "city": "San Francisco",
           "state": "CA",
           "country": "United States",
           "postalCode": "94109",
           "lat": 37.8375,
           "lon": -122.3380
       }
    },    
    {
       "id": "10",
       "name": "St. Regis San Francisco",
       "phoneNumber": "(415) 284-4010",
       "description": "St. Regis Museum Tower is a 42-story, 484 ft skyscraper in the South of Market district of San Francisco, California, adjacent to Yerba Buena Gardens, Moscone Center, PacBell Building and the San Francisco Museum of Modern Art.",
       "address": {
           "streetNumber": "125",
           "streetName": "3rd St",
           "city": "San Francisco",
           "state": "CA",
           "country": "United States",
           "postalCode": "94109",
           "lat": 37.8435,
           "lon": -122.3300
       }
    },    
    {
       "id": "11",
       "name": "St. Regis San Francisco",
       "phoneNumber": "(415) 284-4011",
       "description": "St. Regis Museum Tower is a 42-story, 484 ft skyscraper in the South of Market district of San Francisco, California, adjacent to Yerba Buena Gardens, Moscone Center, PacBell Building and the San Francisco Museum of Modern Art.",
       "address": {
           "streetNumber": "125",
           "streetName": "3rd St",
           "city": "San Francisco",
           "state": "CA",
           "country": "United States",
           "postalCode": "94109",
           "lat": 37.8495,
           "lon": -122.3220
       }
    },    
    {
       "id": "12",
       "name": "St. Regis San Francisco",
       "phoneNumber": "(415) 284-4012",
       "description": "St. Regis Museum Tower is a 42-story, 484 ft skyscraper in the South of Market district of San Francisco, California, adjacent to Yerba Buena Gardens, Moscone Center, PacBell Building and the San Francisco Museum of Modern Art.",
       "address": {
           "streetNumber": "125",
           "streetName": "3rd St",
           "city": "San Francisco",
           "state": "CA",
           "country": "United States",
           "postalCode": "94109",
           "lat": 37.8555,
           "lon": -122.3140
       }
    },    
    {
       "id": "13",
       "name": "St. Regis San Francisco",
       "phoneNumber": "(415) 284-4013",
       "description": "St. Regis Museum Tower is a 42-story, 484 ft skyscraper in the South of Market district of San Francisco, California, adjacent to Yerba Buena Gardens, Moscone Center, PacBell Building and the San Francisco Museum of Modern Art.",
       "address": {
           "streetNumber": "125",
           "streetName": "3rd St",
           "city": "San Francisco",
           "state": "CA",
           "country": "United States",
           "postalCode": "94109",
           "lat": 37.8615,
           "lon": -122.3060
       }
    },    
    {
       "id": "14",
       "name": "St. Regis San Francisco",
       "phoneNumber": "(415) 284-4014",
       "description": "St. Regis Museum Tower is a 42-story, 484 ft skyscraper in the South of Market district of San Francisco, California, adjacent to Yerba Buena Gardens, Moscone Center, PacBell Building and the San Francisco Museum of Modern Art.",
       "address": {
           "streetNumber": "125",
           "streetName": "3rd St",
           "city": "San Francisco",
           "state": "CA",
           "country": "United States",
           "postalCode": "94109",
           "lat": 37.8675,
           "lon": -122.2980
       }
    },    
    {
       "id": "15",
       "name": "St. Regis San Francisco",
       "phoneNumber": "(415) 284-4015",
       "description": "St. Regis Museum Tower is a 42-story, 484 ft skyscraper in the South of Market district of San Francisco, California, adjacent to Yerba Buena Gardens, Moscone Center, PacBell Building and the San Francisco Museum of Modern Art.",
       "address": {
           "streetNumber": "125",
           "streetName": "3rd St",
           "city": "San Francisco",
           "state": "CA",
           "country": "United States",
           "postalCode": "94109",
           "lat": 37.8735,
           "lon": -122.2900
       }
    },    
    {
       "id": "16",
       "name": "St. Regis San Francisco",
       "phoneNumber": "(415) 284-4016",
       "description": "St. Regis Museum Tower is a 42-story, 484 ft skyscraper in the South of Market district of San Francisco, California, adjacent to Yerba Buena Gardens, Moscone Center, PacBell Building and the San Francisco Museum of Modern Art.",
       "address": {
           "streetNumber": "125",
           "streetName": "3rd St",
           "city": "San Francisco",
           "state": "CA",
           "country": "United States",
           "postalCode": "94109",
           "lat": 37.8795,
           "lon": -122.2820
       }
    },    
    {
       "id": "17",
       "name": "St. Regis San Francisco",
       "phoneNumber": "(415) 284-4017",
       "description": "St. Regis Museum Tower is a 42-story, 484 ft skyscraper in the South of Market district of San Francisco, California, adjacent to Yerba Buena Gardens, Moscone Center, PacBell Building and the San Francisco Museum of Modern Art.",
       "address": {
           "streetNumber": "125",
           "streetName": "3rd St",
           "city": "San Francisco",
           "state": "CA",
           "country": "United States",
           "postalCode": "94109",
           "lat": 37.8855,
           "lon": -122.2740
       }
    },    
    {
       "id": "18",
       "name": "St. Regis San Francisco",
       "phoneNumber": "(415) 284-4018",
       "description": "St. Regis Museum Tower is a 42-story, 484 ft skyscraper in the South of Market district of San Francisco, California, adjacent to Yerba Buena Gardens, Moscone Center, PacBell Building and the San Francisco Museum of Modern Art.",
       "address": {
           "streetNumber": "125",
           "streetName": "3rd St",
           "city": "San Francisco",
           "state": "CA",
           "country": "United States",
           "postalCode": "94109",
           "lat": 37.8915,
           "lon": -122.2660
       }
    },    
    {
       "id": "19",
       "name": "St. Regis San Francisco",
       "phoneNumber": "(415) 284-4019",
       "description": "St. Regis Museum Tower is a 42-story, 484 ft skyscraper in the South of Market district of San Francisco, California, adjacent to Yerba Buena Gardens, Moscone Center, PacBell Building and the San Francisco Museum of Modern Art.",
       "address": {
           "streetNumber": "125",
           "streetName": "3rd St",
           "city": "San Francisco",
           "state": "CA",
           "country": "United States",
           "postalCode": "94109",
           "lat": 37.8975,
           "lon": -122.2580
       }
    },    
    {
       "id": "20",
       "name": "St. Regis San Francisco",
       "phoneNumber": "(415) 284-4020",
       "description": "St. Regis Museum Tower is a 42-story, 484 ft skyscraper in the South of Market district of San Francisco, California, adjacent to Yerba Buena Gardens, Moscone Center, PacBell Building and the San Francisco Museum of Modern Art.",
       "address": {
           "streetNumber": "125",
           "streetName": "3rd St",
           "city": "San Francisco",
           "state": "CA",
           "country": "United States",
           "postalCode": "94109",
           "lat": 37.9035,
           "lon": -122.2500
       }
    },    
    {
       "id": "21",
       "name": "St. Regis San Francisco",
       "phoneNumber": "(415) 284-4021",
       "description": "St. Regis Museum Tower is a 42-story, 484 ft skyscraper in the South of Market district of San Francisco, California, adjacent to Yerba Buena Gardens, Moscone Center, PacBell Building and the San Francisco Museum of Modern Art.",
       "address": {
           "streetNumber": "125",
           "streetName": "3rd St",
           "city": "San Francisco",
           "state": "CA",
           "country": "United States",
           "postalCode": "94109",
           "lat": 37.9095,
           "lon": -122.2420
       }
    },    
    {
       "id": "22",
       "name": "St. Regis San Francisco",
       "phoneNumber": "(415) 284-4022",
       "description": "St. Regis Museum Tower is a 42-story, 484 ft skyscraper in the South of Market district of San Francisco, California, adjacent to Yerba Buena Gardens, Moscone Center, PacBell Building and the San Francisco Museum of Modern Art.",
       "address": {
           "streetNumber": "125",
           "streetName": "3rd St",
           "city": "San Francisco",
           "state": "CA",
           "country": "United States",
           "postalCode": "94109",
           "lat": 37.9155,
           "lon": -122.2340
       }
    },    
    {
       "id": "23",
       "name": "St. Regis San Francisco",
       "phoneNumber": "(415) 284-4023",
       "description": "St. Regis Museum Tower is a 42-story, 484 ft skyscraper in the South of Market district of San Francisco, California, adjacent to Yerba Buena Gardens, Moscone Center, PacBell Building and the San Francisco Museum of Modern Art.",
       "address": {
           "streetNumber": "125",
           "streetName": "3rd St",
           "city": "San Francisco",
           "state": "CA",
           "country": "United States",
           "postalCode": "94109",
           "lat": 37.9215,
           "lon": -122.2260
       }
    },    
    {
       "id": "24",
       "name": "St. Regis San Francisco",
       "phoneNumber": "(415) 284-4024",
       "description": "St. Regis Museum Tower is a 42-story, 484 ft skyscraper in the South of Market district of San Francisco, California, adjacent to Yerba Buena Gardens, Moscone Center, PacBell Building and the San Francisco Museum of Modern Art.",
       "address": {
           "streetNumber": "125",
           "streetName": "3rd St",
           "city": "San Francisco",
           "state": "CA",
           "country": "United States",
           "postalCode": "94109",
           "lat": 37.9275,
           "lon": -122.2180
       }
    },    
    {
       "id": "25",
       "name": "St. Regis San Francisco",
       "phoneNumber": "(415) 284-4025",
       "description": "St. Regis Museum Tower is a 42-story, 484 ft skyscraper in the South of Market district of San Francisco, California, adjacent to Yerba Buena Gardens, Moscone Center, PacBell Building and the San Francisco Museum of Modern Art.",
       "address": {
           "streetNumber": "125",
           "streetName": "3rd St",
           "city": "San Francisco",
           "state": "CA",
           "country": "United States",
           "postalCode": "94109",
           "lat": 37.9335,
           "lon": -122.2100
       }
    },    
    {
       "id": "26",
       "name": "St. Regis San Francisco",
       "phoneNumber": "(415) 284-4026",
       "description": "St. Regis Museum Tower is a 42-story, 484 ft skyscraper in the South of Market district of San Francisco, California, adjacent to Yerba Buena Gardens, Moscone Center, PacBell Building and the San Francisco Museum of Modern Art.",
       "address": {
           "streetNumber": "125",
           "streetName": "3rd St",
           "city": "San Francisco",
           "state": "CA",
           "country": "United States",
           "postalCode": "94109",
           "lat": 37.9395,
           "lon": -122.2020
       }
    },    
    {
       "id": "27",
       "name": "St. Regis San Francisco",
       "phoneNumber": "(415) 284-4027",
       "description": "St. Regis Museum Tower is a 42-story, 484 ft skyscraper in the South of Market district of San Francisco, California, adjacent to Yerba Buena Gardens, Moscone Center, PacBell Building and the San Francisco Museum of Modern Art.",
       "address": {
           "streetNumber": "125",
           "streetName": "3rd St",
           "city": "San Francisco",
           "state": "CA",
           "country": "United States",
           "postalCode": "94109",
           "lat": 37.9455,
           "lon": -122.1940
       }
    },    
    {
       "id": "28",
       "name": "St. Regis San Francisco",
       "phoneNumber": "(415) 284-4028",
       "description": "St. Regis Museum Tower is a 42-story, 484 ft skyscraper in the South of Market district of San Francisco, California, adjacent to Yerba Buena Gardens, Moscone Center, PacBell Building and the San Francisco Museum of Modern Art.",
       "address": {
           "streetNumber": "125",
           "streetName": "3rd St",
           "city": "San Francisco",
           "state": "CA",
           "country": "United States",
           "postalCode": "94109",
           "lat": 37.9515,
           "lon": -122.1860
       }
    },    
    {
       "id": "29",
       "name": "St. Regis San Francisco",
       "phoneNumber": "(415) 284-4029",
       "description": "St. Regis Museum Tower is a 42-story, 484 ft skyscraper in the South of Market district of San Francisco, California, adjacent to Yerba Buena Gardens, Moscone Center, PacBell Building and the San Francisco Museum of Modern Art.",
       "address": {
           "streetNumber": "125",
           "streetName": "3rd St",
           "city": "San Francisco",
           "state": "CA",
           "country": "United States",
           "postalCode": "94109",
           "lat": 37.9575,
           "lon": -122.1780
       }
    },    
    {
       "id": "30",
       "name": "St. Regis San Francisco",
       "phoneNumber": "(415) 284-4030",
       "description": "St. Regis Museum Tower is a 42-story, 484 ft skyscraper in the South of Market district of San Francisco, California, adjacent to Yerba Buena Gardens, Moscone Center, PacBell Building and the San Francisco Museum of Modern Art.",
       "address": {
           "streetNumber": "125",
           "streetName": "3rd St",
           "city": "San Francisco",
           "state": "CA",
           "country": "United States",
           "postalCode": "94109",
           "lat": 37.9635,
           "lon": -122.1700
       }
    },    
    {
       "id": "31",
       "name": "St. Regis San Francisco",
       "phoneNumber": "(415) 284-4031",
       "description": "St. Regis Museum Tower is a 42-story, 484 ft skyscraper in the South of Market district of San Francisco, California, adjacent to Yerba Buena Gardens, Moscone Center, PacBell Building and the San Francisco Museum of Modern Art.",
       "address": {
           "streetNumber": "125",
           "streetName": "3rd St",
           "city": "San Francisco",
           "state": "CA",
           "country": "United States",
           "postalCode": "94109",
           "lat": 37.9695,
           "lon": -122.1620
       }
    },    
    {
       "id": "32",
       "name": "St. Regis San Francisco",
       "phoneNumber": "(415) 284-4032",
       "description": "St. Regis Museum Tower is a 42-story, 484 ft skyscraper in the South of Market district of San Francisco, California, adjacent to Yerba Buena Gardens, Moscone Center, PacBell Building and the San Francisco Museum of Modern Art.",
       "address": {
           "streetNumber": "125",
           "streetName": "3rd St",
           "city": "San Francisco",
           "state": "CA",
           "country": "United States",
           "postalCode": "94109",
           "lat": 37.9755,
           "lon": -122.1540
       }
    },    
    {
       "id": "33",
       "name": "St. Regis San Francisco",
       "phoneNumber": "(415) 284-4033",
       "description": "St. Regis Museum Tower is a 42-story, 484 ft skyscraper in the South of Market district of San Francisco, California, adjacent to Yerba Buena Gardens, Moscone Center, PacBell Building and the San Francisco Museum of Modern Art.",
       "address": {
           "streetNumber": "125",
           "streetName": "3rd St",
           "city": "San Francisco",
           "state": "CA",
           "country": "United States",
           "postalCode": "94109",
           "lat": 37.9815,
           "lon": -122.1460
       }
    },    
    {
       "id": "34",
       "name": "St. Regis San Francisco",
       "phoneNumber": "(415) 284-4034",
       "description": "St. Regis Museum Tower is a 42-story, 484 ft skyscraper in the South of Market district of San Francisco, California, adjacent to Yerba Buena Gardens, Moscone Center, PacBell Building and the San Francisco Museum of Modern Art.",
       "address": {
           "streetNumber": "125",
           "streetName": "3rd St",
           "city": "San Francisco",
           "state": "CA",
           "country": "United States",
           "postalCode": "94109",
           "lat": 37.9875,
           "lon": -122.1380
       }
    },    
    {
       "id": "35",
       "name": "St. Regis San Francisco",
       "phoneNumber": "(415) 284-4035",
       "description": "St. Regis Museum Tower is a 42-story, 484 ft skyscraper in the South of Market district of San Francisco, California, adjacent to Yerba Buena Gardens, Moscone Center, PacBell Building and the San Francisco Museum of Modern Art.",
       "address": {
           "streetNumber": "125",
           "streetName": "3rd St",
           "city": "San Francisco",
           "state": "CA",
           "country": "United States",
           "postalCode": "94109",
           "lat": 37.9935,
           "lon": -122.1300
       }
    },    
    {
       "id": "36",
       "name": "St. Regis San Francisco",
       "phoneNumber": "(415) 284-4036",
       "description": "St. Regis Museum Tower is a 42-story, 484 ft skyscraper in the South of Market district of San Francisco, California, adjacent to Yerba Buena Gardens, Moscone Center, PacBell Building and the San Francisco Museum of Modern Art.",
       "address": {
           "streetNumber": "125",
           "streetName": "3rd St",
           "city": "San Francisco",
           "state": "CA",
           "country": "United States",
           "postalCode": "94109",
           "lat": 37.9995,
           "lon": -122.1220
       }
    },    
    {
       "id": "37",
       "name": "St. Regis San Francisco",
       "phoneNumber": "(415) 284-4037",
       "description": "St. Regis Museum Tower is a 42-story, 484 ft skyscraper in the South of Market district of San Francisco, California, adjacent to Yerba Buena Gardens, Moscone Center, PacBell Building and the San Francisco Museum of Modern Art.",
       "address": {
           "streetNumber": "125",
           "streetName": "3rd St",
           "city": "San Francisco",
           "state": "CA",
           "country": "United States",
           "postalCode": "94109",
           "lat": 38.0055,
           "lon": -122.1140
       }
    },    
    {
       "id": "38",
       "name": "St. Regis San Francisco",
       "phoneNumber": "(415) 284-4038",
       "description": "St. Regis Museum Tower is a 42-story, 484 ft skyscraper in the South of Market district of San Francisco, California, adjacent to Yerba Buena Gardens, Moscone Center, PacBell Building and the San Francisco Museum of Modern Art.",
       "address": {
           "streetNumber": "125",
           "streetName": "3rd St",
           "city": "San Francisco",
           "state": "CA",
           "country": "United States",
           "postalCode": "94109",
           "lat": 38.0115,
           "lon": -122.1060
       }
    },    
    {
       "id": "39",
       "name": "St. Regis San Francisco",
       "phoneNumber": "(415) 284-4039",
       "description": "St. Regis Museum Tower is a 42-story, 484 ft skyscraper in the South of Market district of San Francisco, California, adjacent to Yerba Buena Gardens, Moscone Center, PacBell Building and the San Francisco Museum of Modern Art.",
       "address": {
           "streetNumber": "125",
           "streetName": "3rd St",
           "city": "San Francisco",
           "state": "CA",
           "country": "United States",
           "postalCode": "94109",
           "lat": 38.0175,
           "lon": -122.0980
       }
    },    
    {
       "id": "40",
       "name": "St. Regis San Francisco",
       "phoneNumber": "(415) 284-4040",
       "description": "St. Regis Museum Tower is a 42-story, 484 ft skyscraper in the South of Market district of San Francisco, California, adjacent to Yerba Buena Gardens, Moscone Center, PacBell Building and the San Francisco Museum of Modern Art.",
       "address": {
           "streetNumber": "125",
           "streetName": "3rd St",
           "city": "San Francisco",
           "state": "CA",
           "country": "United States",
           "postalCode": "94109",
           "lat": 38.0235,
           "lon": -122.0900
       }
    },    
    {
       "id": "41",
       "name": "St. Regis San Francisco",
       "phoneNumber": "(415) 284-4041",
       "description": "St. Regis Museum Tower is a 42-story, 484 ft skyscraper in the South of Market district of San Francisco, California, adjacent to Yerba Buena Gardens, Moscone Center, PacBell Building and the San Francisco Museum of Modern Art.",
       "address": {
           "streetNumber": "125",
           "streetName": "3rd St",
           "city": "San Francisco",
           "state": "CA",
           "country": "United States",
           "postalCode": "94109",
           "lat": 38.0295,
           "lon": -122.0820
       }
    },    
    {
       "id": "42",
       "name": "St. Regis San Francisco",
       "phoneNumber": "(415) 284-4042",
       "description": "St. Regis Museum Tower is a 42-story, 484 ft skyscraper in the South of Market district of San Francisco, California, adjacent to Yerba Buena Gardens, Moscone Center, PacBell Building and the San Francisco Museum of Modern Art.",
       "address": {
           "streetNumber": "125",
           "streetName": "3rd St",
           "city": "San Francisco",
           "state": "CA",
           "country": "United States",
           "postalCode": "94109",
           "lat": 38.0355,
           "lon": -122.0740
       }
    },    
    {
       "id": "43",
       "name": "St. Regis San Francisco",
       "phoneNumber": "(415) 284-4043",
       "description": "St. Regis Museum Tower is a 42-story, 484 ft skyscraper in the South of Market district of San Francisco, California, adjacent to Yerba Buena Gardens, Moscone Center, PacBell Building and the San Francisco Museum of Modern Art.",
       "address": {
           "streetNumber": "125",
           "streetName": "3rd St",
           "city": "San Francisco",
           "state": "CA",
           "country": "United States",
           "postalCode": "94109",
           "lat": 38.0415,
           "lon": -122.0660
       }
    },    
    {
       "id": "44",
       "name": "St. Regis San Francisco",
       "phoneNumber": "(415) 284-4044",
       "description": "St. Regis Museum Tower is a 42-story, 484 ft skyscraper in the South of Market district of San Francisco, California, adjacent to Yerba Buena Gardens, Moscone Center, PacBell Building and the San Francisco Museum of Modern Art.",
       "address": {
           "streetNumber": "125",
           "streetName": "3rd St",
           "city": "San Francisco",
           "state": "CA",
           "country": "United States",
           "postalCode": "94109",
           "lat": 38.0475,
           "lon": -122.0580
       }
    },    
    {
       "id": "45",
       "name": "St. Regis San Francisco",
       "phoneNumber": "(415) 284-4045",
       "description": "St. Regis Museum Tower is a 42-story, 484 ft skyscraper in the South of Market district of San Francisco, California, adjacent to Yerba Buena Gardens, Moscone Center, PacBell Building and the San Francisco Museum of Modern Art.",
       "address": {
           "streetNumber": "125",
           "streetName": "3rd St",
           "city": "San Francisco",
           "state": "CA",
           "country": "United States",
           "postalCode": "94109",
           "lat": 38.0535,
           "lon": -122.0500
       }
    },    
    {
       "id": "46",
       "name": "St. Regis San Francisco",
       "phoneNumber": "(415) 284-4046",
       "description": "St. Regis Museum Tower is a 42-story, 484 ft skyscraper in the South of Market district of San Francisco, California, adjacent to Yerba Buena Gardens, Moscone Center, PacBell Building and the San Francisco Museum of Modern Art.",
       "address": {
           "streetNumber": "125",
           "streetName": "3rd St",
           "city": "San Francisco",
           "state": "CA",
           "country": "United States",
           "postalCode": "94109",
           "lat": 38.0595,
           "lon": -122.0420
       }
    },    
    {
       "id": "47",
       "name": "St. Regis San Francisco",
       "phoneNumber": "(415) 284-4047",
       "description": "St. Regis Museum Tower is a 42-story, 484 ft skyscraper in the South of Market district of San Francisco, California, adjacent to Yerba Buena Gardens, Moscone Center, PacBell Building and the San Francisco Museum of Modern Art.",
       "address": {
           "streetNumber": "125",
           "streetName": "3rd St",
           "city": "San Francisco",
           "state": "CA",
           "country": "United States",
           "postalCode": "94109",
           "lat": 38.0655,
           "lon": -122.0340
       }
    },    
    {
       "id": "48",
       "name": "St. Regis San Francisco",
       "phoneNumber": "(415) 284-4048",
       "description": "St. Regis Museum Tower is a 42-story, 484 ft skyscraper in the South of Market district of San Francisco, California, adjacent to Yerba Buena Gardens, Moscone Center, PacBell Building and the San Francisco Museum of Modern Art.",
       "address": {
           "streetNumber": "125",
           "streetName": "3rd St",
           "city": "San Francisco",
           "state": "CA",
           "country": "United States",
           "postalCode": "94109",
           "lat": 38.0715,
           "lon": -122.0260
       }
    },    
    {
       "id": "49",
       "name": "St. Regis San Francisco",
       "phoneNumber": "(415) 284-4049",
       "description": "St. Regis Museum Tower is a 42-story, 484 ft skyscraper in the South of Market district of San Francisco, California, adjacent to Yerba Buena Gardens, Moscone Center, PacBell Building and the San Francisco Museum of Modern Art.",
       "address": {
           "streetNumber": "125",
           "streetName": "3rd St",
           "city": "San Francisco",
           "state": "CA",
           "country": "United States",
           "postalCode": "94109",
           "lat": 38.0775,
           "lon": -122.0180
       }
    },    
    {
       "id": "50",
       "name": "St. Regis San Francisco",
       "phoneNumber": "(415) 284-4050",
       "description": "St. Regis Museum Tower is a 42-story, 484 ft skyscraper in the South of Market district of San Francisco, California, adjacent to Yerba Buena Gardens, Moscone Center, PacBell Building and the San Francisco Museum of Modern Art.",
       "address": {
           "streetNumber": "125",
           "streetName": "3rd St",
           "city": "San Francisco",
           "state": "CA",
           "country": "United States",
           "postalCode": "94109",
           "lat": 38.0835,
           "lon": -122.0100
       }
    },    
    {
       "id": "51",
       "name": "St. Regis San Francisco",
       "phoneNumber": "(415) 284-4051",
       "description": "St. Regis Museum Tower is a 42-story, 484 ft skyscraper in the South of Market district of San Francisco, California, adjacent to Yerba Buena Gardens, Moscone Center, PacBell Building and the San Francisco Museum of Modern Art.",
       "address": {
           "streetNumber": "125",
           "streetName": "3rd St",
           "city": "San Francisco",
           "state": "CA",
           "country": "United States",
           "postalCode": "94109",
           "lat": 38.0895,
           "lon": -122.0020
       }
    },    
    {
       "id": "52",
       "name": "St. Regis San Francisco",
       "phoneNumber": "(415) 284-4052",
       "description": "St. Regis Museum Tower is a 42-story, 484 ft skyscraper in the South of Market district of San Francisco, California, adjacent to Yerba Buena Gardens, Moscone Center, PacBell Building and the San Francisco Museum of Modern Art.",
       "address": {
           "streetNumber": "125",
           "streetName": "3rd St",
           "city": "San Francisco",
           "state": "CA",
           "country": "United States",
           "postalCode": "94109",
           "lat": 38.0955,
           "lon": -121.9940
       }
    },    
    {
       "id": "53",
       "name": "St. Regis San Francisco",
       "phoneNumber": "(415) 284-4053",
       "description": "St. Regis Museum Tower is a 42-story, 484 ft skyscraper in the South of Market district of San Francisco, California, adjacent to Yerba Buena Gardens, Moscone Center, PacBell Building and the San Francisco Museum of Modern Art.",
       "address": {
           "streetNumber": "125",
           "streetName": "3rd St",
           "city": "San Francisco",
           "state": "CA",
           "country": "United States",
           "postalCode": "94109",
           "lat": 38.1015,
           "lon": -121.9860
       }
    },    
    {
       "id": "54",
       "name": "St. Regis San Francisco",
       "phoneNumber": "(415) 284-4054",
       "description": "St. Regis Museum Tower is a 42-story, 484 ft skyscraper in the South of Market district of San Francisco, California, adjacent to Yerba Buena Gardens, Moscone Center, PacBell Building and the San Francisco Museum of Modern Art.",
       "address": {
           "streetNumber": "125",
           "streetName": "3rd St",
           "city": "San Francisco",
           "state": "CA",
           "country": "United States",
           "postalCode": "94109",
           "lat": 38.1075,
           "lon": -121.9780
       }
    },    
    {
       "id": "55",
       "name": "St. Regis San Francisco",
       "phoneNumber": "(415) 284-4055",
       "description": "St. Regis Museum Tower is a 42-story, 484 ft skyscraper in the South of Market district of San Francisco, California, adjacent to Yerba Buena Gardens, Moscone Center, PacBell Building and the San Francisco Museum of Modern Art.",
       "address": {
           "streetNumber": "125",
           "streetName": "3rd St",
           "city": "San Francisco",
           "state": "CA",
           "country": "United States",
           "postalCode": "94109",
           "lat": 38.1135,
           "lon": -121.9700
       }
    },    
    {
       "id": "56",
       "name": "St. Regis San Francisco",
       "phoneNumber": "(415) 284-4056",
       "description": "St. Regis Museum Tower is a 42-story, 484 ft skyscraper in the South of Market district of San Francisco, California, adjacent to Yerba Buena Gardens, Moscone Center, PacBell Building and the San Francisco Museum of Modern Art.",
       "address": {
           "streetNumber": "125",
           "streetName": "3rd St",
           "city": "San Francisco",
           "state": "CA",
           "country": "United States",
           "postalCode": "94109",
           "lat": 38.1195,
           "lon": -121.9620
       }
    },    
    {
       "id": "57",
       "name": "St. Regis San Francisco",
       "phoneNumber": "(415) 284-4057",
       "description": "St. Regis Museum Tower is a 42-story, 484 ft skyscraper in the South of Market district of San Francisco, California, adjacent to Yerba Buena Gardens, Moscone Center, PacBell Building and the San Francisco Museum of Modern Art.",
       "address": {
           "streetNumber": "125",
           "streetName": "3rd St",
           "city": "San Francisco",
           "state": "CA",
           "country": "United States",
           "postalCode": "94109",
           "lat": 38.1255,
           "lon": -121.9540
       }
    },    
    {
       "id": "58",
       "name": "St. Regis San Francisco",
       "phoneNumber": "(415) 284-4058",
       "description": "St. Regis Museum Tower is a 42-story, 484 ft skyscraper in the South of Market district of San Francisco, California, adjacent to Yerba Buena Gardens, Moscone Center, PacBell Building and the San Francisco Museum of Modern Art.",
       "address": {
           "streetNumber": "125",
           "streetName": "3rd St",
           "city": "San Francisco",
           "state": "CA",
           "country": "United States",
           "postalCode": "94109",
           "lat": 38.1315,
           "lon": -121.9460
       }
    },    
    {
       "id": "59",
       "name": "St. Regis San Francisco",
       "phoneNumber": "(415) 284-4059",
       "description": "St. Regis Museum Tower is a 42-story, 484 ft skyscraper in the South of Market district of San Francisco, California, adjacent to Yerba Buena Gardens, Moscone Center, PacBell Building and the San Francisco Museum of Modern Art.",
       "address": {
           "streetNumber": "125",
           "streetName": "3rd St",
           "city": "San Francisco",
           "state": "CA",
           "country": "United States",
           "postalCode": "94109",
           "lat": 38.1375,
           "lon": -121.9380
       }
    },    
    {
       "id": "60",
       "name": "St. Regis San Francisco",
       "phoneNumber": "(415) 284-4060",
       "description": "St. Regis Museum Tower is a 42-story, 484 ft skyscraper in the South of Market district of San Francisco, California, adjacent to Yerba Buena Gardens, Moscone Center, PacBell Building and the San Francisco Museum of Modern Art.",
       "address": {
           "streetNumber": "125",
           "streetName": "3rd St",
           "city": "San Francisco",
           "state": "CA",
           "country": "United States",
           "postalCode": "94109",
           "lat": 38.1435,
           "lon": -121.9300
       }
    },    
    {
       "id": "61",
       "name": "St. Regis San Francisco",
       "phoneNumber": "(415) 284-4061",
       "description": "St. Regis Museum Tower is a 42-story, 484 ft skyscraper in the South of Market district of San Francisco, California, adjacent to Yerba Buena Gardens, Moscone Center, PacBell Building and the San Francisco Museum of Modern Art.",
       "address": {
           "streetNumber": "125",
           "streetName": "3rd St",
           "city": "San Francisco",
           "state": "CA",
           "country": "United States",
           "postalCode": "94109",
           "lat": 38.1495,
           "lon": -121.9220
       }
    },    
    {
       "id": "62",
       "name": "St. Regis San Francisco",
       "phoneNumber": "(415) 284-4062",
       "description": "St. Regis Museum Tower is a 42-story, 484 ft skyscraper in the South of Market district of San Francisco, California, adjacent to Yerba Buena Gardens, Moscone Center, PacBell Building and the San Francisco Museum of Modern Art.",
       "address": {
           "streetNumber": "125",
           "streetName": "3rd St",
           "city": "San Francisco",
           "state": "CA",
           "country": "United States",
           "postalCode": "94109",
           "lat": 38.1555,
           "lon": -121.9140
       }
    },    
    {
       "id": "63",
       "name": "St. Regis San Francisco",
       "phoneNumber": "(415) 284-4063",
       "description": "St. Regis Museum Tower is a 42-story, 484 ft skyscraper in the South of Market district of San Francisco, California, adjacent to Yerba Buena Gardens, Moscone Center, PacBell Building and the San Francisco Museum of Modern Art.",
       "address": {
           "streetNumber": "125",
           "streetName": "3rd St",
           "city": "San Francisco",
           "state": "CA",
           "country": "United States",
           "postalCode": "94109",
           "lat": 38.1615,
           "lon": -121.9060
       }
    },    
    {
       "id": "64",
       "name": "St. Regis San Francisco",
       "phoneNumber": "(415) 284-4064",
       "description": "St. Regis Museum Tower is a 42-story, 484 ft skyscraper in the South of Market district of San Francisco, California, adjacent to Yerba Buena Gardens, Moscone Center, PacBell Building and the San Francisco Museum of Modern Art.",
       "address": {
           "streetNumber": "125",
           "streetName": "3rd St",
           "city": "San Francisco",
           "state": "CA",
           "country": "United States",
           "postalCode": "94109",
           "lat": 38.1675,
           "lon": -121.8980
       }
    },    
    {
       "id": "65",
       "name": "St. Regis San Francisco",
       "phoneNumber": "(415) 284-4065",
       "description": "St. Regis Museum Tower is a 42-story, 484 ft skyscraper in the South of Market district of San Francisco, California, adjacent to Yerba Buena Gardens, Moscone Center, PacBell Building and the San Francisco Museum of Modern Art.",
       "address": {
           "streetNumber": "125",
           "streetName": "3rd St",
           "city": "San Francisco",
           "state": "CA",
           "country": "United States",
           "postalCode": "94109",
           "lat": 38.1735,
           "lon": -121.8900
       }
    },    
    {
       "id": "66",
       "name": "St. Regis San Francisco",
       "phoneNumber": "(415) 284-4066",
       "description": "St. Regis Museum Tower is a 42-story, 484 ft skyscraper in the South of Market district of San Francisco, California, adjacent to Yerba Buena Gardens, Moscone Center, PacBell Building and the San Francisco Museum of Modern Art.",
       "address": {
           "streetNumber": "125",
           "streetName": "3rd St",
           "city": "San Francisco",
           "state": "CA",
           "country": "United States",
           "postalCode": "94109",
           "lat": 38.1795,
           "lon": -121.8820
       }
    },    
    {
       "id": "67",
       "name": "St. Regis San Francisco",
       "phoneNumber": "(415) 284-4067",
       "description": "St. Regis Museum Tower is a 42-story, 484 ft skyscraper in the South of Market district of San Francisco, California, adjacent to Yerba Buena Gardens, Moscone Center, PacBell Building and the San Francisco Museum of Modern Art.",
       "address": {
           "streetNumber": "125",
           "streetName": "3rd St",
           "city": "San Francisco",
           "state": "CA",
           "country": "United States",
           "postalCode": "94109",
           "lat": 38.1855,
           "lon": -121.8740
       }
    },    
    {
       "id": "68",
       "name": "St. Regis San Francisco",
       "phoneNumber": "(415) 284-4068",
       "description": "St. Regis Museum Tower is a 42-story, 484 ft skyscraper in the South of Market district of San Francisco, California, adjacent to Yerba Buena Gardens, Moscone Center, PacBell Building and the San Francisco Museum of Modern Art.",
       "address": {
           "streetNumber": "125",
           "streetName": "3rd St",
           "city": "San Francisco",
           "state": "CA",
           "country": "United States",
           "postalCode": "94109",
           "lat": 38.1915,
           "lon": -121.8660
       }
    },    
    {
       "id": "69",
       "name": "St. Regis San Francisco",
       "phoneNumber": "(415) 284-4069",
       "description": "St. Regis Museum Tower is a 42-story, 484 ft skyscraper in the South of Market district of San Francisco, California, adjacent to Yerba Buena Gardens, Moscone Center, PacBell Building and the San Francisco Museum of Modern Art.",
       "address": {
           "streetNumber": "125",
           "streetName": "3rd St",
           "city": "San Francisco",
           "state": "CA",
           "country": "United States",
           "postalCode": "94109",
           "lat": 38.1975,
           "lon": -121.8580
       }
    },    
    {
       "id": "70",
       "name": "St. Regis San Francisco",
       "phoneNumber": "(415) 284-4070",
       "description": "St. Regis Museum Tower is a 42-story, 484 ft skyscraper in the South of Market district of San Francisco, California, adjacent to Yerba Buena Gardens, Moscone Center, PacBell Building and the San Francisco Museum of Modern Art.",
       "address": {
           "streetNumber": "125",
           "streetName": "3rd St",
           "city": "San Francisco",
           "state": "CA",
           "country": "United States",
           "postalCode": "94109",
           "lat": 38.2035,
           "lon": -121.8500
       }
    },    
    {
       "id": "71",
       "name": "St. Regis San Francisco",
       "phoneNumber": "(415) 284-4071",
       "description": "St. Regis Museum Tower is a 42-story, 484 ft skyscraper in the South of Market district of San Francisco, California, adjacent to Yerba Buena Gardens, Moscone Center, PacBell Building and the San Francisco Museum of Modern Art.",
       "address": {
           "streetNumber": "125",
           "streetName": "3rd St",
           "city": "San Francisco",
           "state": "CA",
           "country": "United States",
           "postalCode": "94109",
           "lat": 38.2095,
           "lon": -121.8420
       }
    },    
    {
       "id": "72",
       "name": "St. Regis San Francisco",
       "phoneNumber": "(415) 284-4072",
       "description": "St. Regis Museum Tower is a 42-story, 484 ft skyscraper in the South of Market district of San Francisco, California, adjacent to Yerba Buena Gardens, Moscone Center, PacBell Building and the San Francisco Museum of Modern Art.",
       "address": {
           "streetNumber": "125",
           "streetName": "3rd St",
           "city": "San Francisco",
           "state": "CA",
           "country": "United States",
           "postalCode": "94109",
           "lat": 38.2155,
           "lon": -121.8340
       }
    },    
    {
       "id": "73",
       "name": "St. Regis San Francisco",
       "phoneNumber": "(415) 284-4073",
       "description": "St. Regis Museum Tower is a 42-story, 484 ft skyscraper in the South of Market district of San Francisco, California, adjacent to Yerba Buena Gardens, Moscone Center, PacBell Building and the San Francisco Museum of Modern Art.",
       "address": {
           "streetNumber": "125",
           "streetName": "3rd St",
           "city": "San Francisco",
           "state": "CA",
           "country": "United States",
           "postalCode": "94109",
           "lat": 38.2215,
           "lon": -121.8260
       }
    },    
    {
       "id": "74",
       "name": "St. Regis San Francisco",
       "phoneNumber": "(415) 284-4074",
       "description": "St. Regis Museum Tower is a 42-story, 484 ft skyscraper in the South of Market district of San Francisco, California, adjacent to Yerba Buena Gardens, Moscone Center, PacBell Building and the San Francisco Museum of Modern Art.",
       "address": {
           "streetNumber": "125",
           "streetName": "3rd St",
           "city": "San Francisco",
           "state": "CA",
           "country": "United States",
           "postalCode": "94109",
           "lat": 38.2275,
           "lon": -121.8180
       }
    },    
    {
       "id": "75",
       "name": "St. Regis San Francisco",
       "phoneNumber": "(415) 284-4075",
       "description": "St. Regis Museum Tower is a 42-story, 484 ft skyscraper in the South of Market district of San Francisco, California, adjacent to Yerba Buena Gardens, Moscone Center, PacBell Building and the San Francisco Museum of Modern Art.",
       "address": {
           "streetNumber": "125",
           "streetName": "3rd St",
           "city": "San Francisco",
           "state": "CA",
           "country": "United States",
           "postalCode": "94109",
           "lat": 38.2335,
           "lon": -121.8100
       }
    },    
    {
       "id": "76",
       "name": "St. Regis San Francisco",
       "phoneNumber": "(415) 284-4076",
       "description": "St. Regis Museum Tower is a 42-story, 484 ft skyscraper in the South of Market district of San Francisco, California, adjacent to Yerba Buena Gardens, Moscone Center, PacBell Building and the San Francisco Museum of Modern Art.",
       "address": {
           "streetNumber": "125",
           "streetName": "3rd St",
           "city": "San Francisco",
           "state": "CA",
           "country": "United States",
           "postalCode": "94109",
           "lat": 38.2395,
           "lon": -121.8020
       }
    },    
    {
       "id": "77",
       "name": "St. Regis San Francisco",
       "phoneNumber": "(415) 284-4077",
       "description": "St. Regis Museum Tower is a 42-story, 484 ft skyscraper in the South of Market district of San Francisco, California, adjacent to Yerba Buena Gardens, Moscone Center, PacBell Building and the San Francisco Museum of Modern Art.",
       "address": {
           "streetNumber": "125",
           "streetName": "3rd St",
           "city": "San Francisco",
           "state": "CA",
           "country": "United States",
           "postalCode": "94109",
           "lat": 38.2455,
           "lon": -121.7940
       }
    },    
    {
       "id": "78",
       "name": "St. Regis San Francisco",
       "phoneNumber": "(415) 284-4078",
       "description": "St. Regis Museum Tower is a 42-story, 484 ft skyscraper in the South of Market district of San Francisco, California, adjacent to Yerba Buena Gardens, Moscone Center, PacBell Building and the San Francisco Museum of Modern Art.",
       "address": {
           "streetNumber": "125",
           "streetName": "3rd St",
           "city": "San Francisco",
           "state": "CA",
           "country": "United States",
           "postalCode": "94109",
           "lat": 38.2515,
           "lon": -121.7860
       }
    },    
    {
       "id": "79",
       "name": "St. Regis San Francisco",
       "phoneNumber": "(415) 284-4079",
       "description": "St. Regis Museum Tower is a 42-story, 484 ft skyscraper in the South of Market district of San Francisco, California, adjacent to Yerba Buena Gardens, Moscone Center, PacBell Building and the San Francisco Museum of Modern Art.",
       "address": {
           "streetNumber": "125",
           "streetName": "3rd St",
           "city": "San Francisco",
           "state": "CA",
           "country": "United States",
           "postalCode": "94109",
           "lat": 38.2575,
           "lon": -121.7780
       }
    },    
    {
       "id": "80",
       "name": "St. Regis San Francisco",
       "phoneNumber": "(415) 284-4080",
       "description": "St. Regis Museum Tower is a 42-story, 484 ft skyscraper in the South of Market district of San Francisco, California, adjacent to Yerba Buena Gardens, Moscone Center, PacBell Building and the San Francisco Museum of Modern Art.",
       "address": {
           "streetNumber": "125",
           "streetName": "3rd St",
           "city": "San Francisco",
           "state": "CA",
           "country": "United States",
           "postalCode": "94109",
           "lat": 38.2635,
           "lon": -121.7700
       }
    }
]
